{
"locations":
[
    {
        "id" : 1,
        "name" : "Flying J Travel Center",
        "address" : "700 J Hwy",
        "city" : "Peculiar",
        "state" : "MO",
        "zip" : "64078",
        "lat"  : 38.722700,
        "long" : -94.451040
    },
    {
        "id" : 2,
        "name" : "Flying J Travel Center",
        "address" : "1300 N Corrington Ave",
        "city" : "Kansas City",
        "state" : "MO",
        "zip" : "64120",
        "lat"  : 39.131040,
        "long" : -94.496610
    },
    {
        "id" : 3,
        "name" : "Pilot Travel Center",
        "address":"4610 Kansas Ave",
        "city" : "Kansas City",
        "state" : "KS",
        "zip" : "66106",
        "lat"  : 39.090720,
        "long" : -94.682580
    },
    {
        "id" : 4,
        "name" : "Flying J Travel Center",
        "address":"8801 NE Birmingham Rd",
        "city" : "Kansas City",
        "state" : "MO",
        "zip" : "64161",
        "lat"  : 39.156510,
        "long" : -94.475010
    },
    {
        "id" : 5,
        "name" : "Pilot Travel Center",
        "address" : "600 W, MO-92",
        "city" : "Kearney",
        "state" : "MO",
        "zip" : "64060",
        "lat"  : 39.368690,
        "long" : -94.374280
    },
    {
        "id" : 6,
        "name" : "Pilot Travel Center",
        "address" : "4215 W US-50",
        "city" : "Emporia",
        "state" : "KS",
        "zip" : "66801",
        "lat"  : 38.410130,
        "long" : -96.237430
    },
    {
        "id" : 7,
        "name" : "Flying J Travel Center",
        "address" : "2250 N Ohio St",
        "city" : "Salina",
        "state" : "KS",
        "zip" : "67401",
        "lat"  : 38.879670,
        "long" : -97.592070
    },
    {
        "id" : 8,
        "name" : "Flying J Travel Center",
        "address" : "3231 Adventureland Dr",
        "city" : "Altoona",
        "state" : "IA",
        "zip" : "50009",
        "lat"  : 41.660170,
        "long" : -93.499530
    },
    {
        "id" : 9,
        "name" : "Flying J Travel Center",
        "address" : "3040 220th St",
        "city" : "Williams",
        "state" : "IA",
        "zip" : "50271",
        "lat"  : 42.470200,
        "long" : -93.572750
    },
    {
        "id" : 10,
        "name" : "Flying J Travel Center",
        "address" : "7005 N Chestnut St",
        "city" : "Avoca",
        "state" : "IA",
        "zip" : "51521",
        "lat"  : 41.499880,
        "long" : -95.333980
    }
]
}